[
 {
   "Company": "Mindful Journey Resources",
   "Address": "10065 Old Hammond Hwy",
   "City": "Baton Rouge",
   "State": "LA",
   "zip": 70816,
   "Title": "",
   "Phone": "(225) 292-2237",
   "Website": "",
   "Location": "Private",
   "Business": "Single Loc"
 },
 {
   "Company": "Brown, Jessica L Phd",
   "Address": "10101 Park Rowe Ave # 200",
   "City": "Baton Rouge",
   "State": "LA",
   "zip": 70810,
   "Title": "PHD",
   "Phone": "(225) 769-2200",
   "Website": "",
   "Location": "Single Loc",
   "Business": "Private"
 },
 {
   "Company": "Burnett, Darla M",
   "Address": "10101 Park Rowe Ave # 200",
   "City": "Baton Rouge",
   "State": "LA",
   "zip": 70810,
   "Title": "",
   "Phone": "(225) 769-2200",
   "Website": "",
   "Location": "Single Loc",
   "Business": "Private"
 },
 {
   "Company": "Dammers, Paul M Phd",
   "Address": "10101 Park Rowe Ave # 200",
   "City": "Baton Rouge",
   "State": "LA",
   "zip": 70810,
   "Title": "PHD",
   "Phone": "(225) 769-2200",
   "Website": "",
   "Location": "Single Loc",
   "Business": "Private"
 },
 {
   "Company": "Cherish Behavioral Health Svc",
   "Address": "10200 Greenwell Springs Rd",
   "City": "Baton Rouge",
   "State": "LA",
   "zip": 70814,
   "Title": "",
   "Phone": "Not Available",
   "Website": "",
   "Location": "Single Loc",
   "Business": "Private"
 },
 {
   "Company": "Romano Brandon P Psy D & Assoc",
   "Address": "10211 Siegen Ln",
   "City": "Baton Rouge",
   "State": "LA",
   "zip": 70810,
   "Title": "",
   "Phone": "(225) 769-2533",
   "Website": "Romanopsych.Com",
   "Location": "Private",
   "Business": "Single Loc"
 },
 {
   "Company": "Behavioral Health Conslnts LLC",
   "Address": "10211 Siegen Ln # 2a",
   "City": "Baton Rouge",
   "State": "LA",
   "zip": 70810,
   "Title": "",
   "Phone": "Not Available",
   "Website": "",
   "Location": "Single Loc",
   "Business": "Private"
 },
 {
   "Company": "Lynn R Schechter Ph D LLC",
   "Address": "10211 Siegen Ln # 2a",
   "City": "Baton Rouge",
   "State": "LA",
   "zip": 70810,
   "Title": "PHD",
   "Phone": "(225) 769-2533",
   "Website": "Drlynnhelpskids.Vpweb.Com",
   "Location": "Private",
   "Business": "Single Loc"
 },
 {
   "Company": "Johnson, Deann M Phd",
   "Address": "10211 Siegen Ln # 2b",
   "City": "Baton Rouge",
   "State": "LA",
   "zip": 70810,
   "Title": "PHD",
   "Phone": "(225) 767-3121",
   "Website": "",
   "Location": "Private",
   "Business": "Single Loc"
 },
 {
   "Company": "Leblanc, Monique M Phd",
   "Address": "10211 Siegen Ln # 2b",
   "City": "Baton Rouge",
   "State": "LA",
   "zip": 70810,
   "Title": "PHD",
   "Phone": "(225) 767-3121",
   "Website": "",
   "Location": "Private",
   "Business": "Single Loc"
 },
 {
   "Company": "Shaheen, Georgia L Phd",
   "Address": "10211 Siegen Ln # 2b",
   "City": "Baton Rouge",
   "State": "LA",
   "zip": 70810,
   "Title": "PHD",
   "Phone": "(225) 767-3121",
   "Website": "",
   "Location": "Private",
   "Business": "Single Loc"
 },
 {
   "Company": "Ochsner Medical Complex",
   "Address": "10310 The Grove Blvd",
   "City": "Baton Rouge",
   "State": "LA",
   "zip": 70836,
   "Title": "MD",
   "Phone": "(225) 761-5200",
   "Website": "Ochsner.Org",
   "Location": "Private",
   "Business": "Single Loc"
 },
 {
   "Company": "Beacon Behavioral Health-Baton",
   "Address": "10425 Plaza Americana Dr",
   "City": "Baton Rouge",
   "State": "LA",
   "zip": 70816,
   "Title": "",
   "Phone": "(225) 810-4719",
   "Website": "Beaconbh.Com",
   "Location": "Single Loc",
   "Business": "Private"
 },
 {
   "Company": "Top Notch Behavioral Health",
   "Address": "10431 Siegen Ln # 101",
   "City": "Baton Rouge",
   "State": "LA",
   "zip": 70810,
   "Title": "",
   "Phone": "(225) 960-7179",
   "Website": "Topnotchbhs.Org",
   "Location": "Private",
   "Business": "Single Loc"
 },
 {
   "Company": "Free Indeed",
   "Address": "10473 Old Hammond Hwy",
   "City": "Baton Rouge",
   "State": "LA",
   "zip": 70816,
   "Title": "",
   "Phone": "(225) 924-1910",
   "Website": "",
   "Location": "Single Loc",
   "Business": "Private"
 },
 {
   "Company": "Maison Des Ami Louisiana Inc",
   "Address": "1050 Convention St",
   "City": "Baton Rouge",
   "State": "LA",
   "zip": 70802,
   "Title": "",
   "Phone": "(225) 343-3827",
   "Website": "Maisonbr.Org",
   "Location": "Private",
   "Business": "Single Loc"
 },
 {
   "Company": "Veritas Counseling Ctr",
   "Address": "10500 Sam Rushing Rd",
   "City": "Baton Rouge",
   "State": "LA",
   "zip": 70816,
   "Title": "",
   "Phone": "Not Available",
   "Website": "Veritascc.Org",
   "Location": "Private",
   "Business": "Single Loc"
 },
 {
   "Company": "I C Lightstone Counseling",
   "Address": "10508 N Glenstone Pl",
   "City": "Baton Rouge",
   "State": "LA",
   "zip": 70810,
   "Title": "",
   "Phone": "(225) 504-2790",
   "Website": "",
   "Location": "Private",
   "Business": "Single Loc"
 },
 {
   "Company": "Intuitive Perspective Cnslng",
   "Address": "10508 N Glenstone Pl # 299",
   "City": "Baton Rouge",
   "State": "LA",
   "zip": 70810,
   "Title": "",
   "Phone": "(225) 315-4270",
   "Website": "",
   "Location": "Private",
   "Business": "Single Loc"
 },
 {
   "Company": "Counseling Co LLC",
   "Address": "10534 N Oak Hills Pkwy # 1",
   "City": "Baton Rouge",
   "State": "LA",
   "zip": 70810,
   "Title": "",
   "Phone": "Not Available",
   "Website": "",
   "Location": "Single Loc",
   "Business": "Private"
 },
 {
   "Company": "NHS Human Svc",
   "Address": "10543 N Glenstone Pl",
   "City": "Baton Rouge",
   "State": "LA",
   "zip": 70810,
   "Title": "",
   "Phone": "(225) 456-2006",
   "Website": "Merakey.Org",
   "Location": "Private",
   "Business": "Single Loc"
 },
 {
   "Company": "David B Hale Phd LLC",
   "Address": "10562 Ranchwood Dr",
   "City": "Baton Rouge",
   "State": "LA",
   "zip": 70815,
   "Title": "",
   "Phone": "Not Available",
   "Website": "",
   "Location": "Single Loc",
   "Business": "Private"
 },
 {
   "Company": "Psychological Evaluation",
   "Address": "10641 Hillary Ct",
   "City": "Baton Rouge",
   "State": "LA",
   "zip": 70810,
   "Title": "PHD",
   "Phone": "(225) 387-3325",
   "Website": "Psychologicalservicesbr.Com",
   "Location": "Private",
   "Business": "Single Loc"
 },
 {
   "Company": "L'Herisson, Laura Phd",
   "Address": "10720 N Oak Hills Pkwy # A",
   "City": "Baton Rouge",
   "State": "LA",
   "zip": 70810,
   "Title": "PHD",
   "Phone": "(225) 766-7575",
   "Website": "",
   "Location": "Private",
   "Business": "Single Loc"
 },
 {
   "Company": "Refuge Counseling Svc",
   "Address": "10827 Florida Blvd",
   "City": "Baton Rouge",
   "State": "LA",
   "zip": 70815,
   "Title": "",
   "Phone": "(225) 275-5683",
   "Website": "",
   "Location": "Private",
   "Business": "Single Loc"
 },
 {
   "Company": "Guided Journey Counseling",
   "Address": "10841 Classique Dr",
   "City": "Baton Rouge",
   "State": "LA",
   "zip": 70815,
   "Title": "",
   "Phone": "Not Available",
   "Website": "",
   "Location": "Single Loc",
   "Business": "Private"
 },
 {
   "Company": "Baton Rouge Counseling Assoc",
   "Address": "10935 Perkins Rd # B",
   "City": "Baton Rouge",
   "State": "LA",
   "zip": 70810,
   "Title": "",
   "Phone": "Not Available",
   "Website": "Brcounselingassociates.Com",
   "Location": "Single Loc",
   "Business": "Private"
 },
 {
   "Company": "Herbert Jan Lpc",
   "Address": "10985 N Harrells Ferry Rd",
   "City": "Baton Rouge",
   "State": "LA",
   "zip": 70816,
   "Title": "LPC",
   "Phone": "(225) 803-9276",
   "Website": "",
   "Location": "Private",
   "Business": "Single Loc"
 },
 {
   "Company": "Patricia Appleton Msw Lcsw",
   "Address": "10985 N Harrells Ferry Rd",
   "City": "Baton Rouge",
   "State": "LA",
   "zip": 70816,
   "Title": "",
   "Phone": "(225) 291-9922",
   "Website": "Patriciaappleton.Com",
   "Location": "Private",
   "Business": "Single Loc"
 },
 {
   "Company": "Solutions Individual Marriage",
   "Address": "10985 N Harrells Ferry Rd",
   "City": "Baton Rouge",
   "State": "LA",
   "zip": 70816,
   "Title": "",
   "Phone": "(225) 273-0106",
   "Website": "",
   "Location": "Private",
   "Business": "Single Loc"
 },
 {
   "Company": "Cypressoak Behavioral Health",
   "Address": "11015 Perkins Rd",
   "City": "Baton Rouge",
   "State": "LA",
   "zip": 70810,
   "Title": "",
   "Phone": "(225) 444-5686",
   "Website": "",
   "Location": "Single Loc",
   "Business": "Private"
 },
 {
   "Company": "Small Talk Counseling-Consltng",
   "Address": "11052 Old Hammond Hwy",
   "City": "Baton Rouge",
   "State": "LA",
   "zip": 70816,
   "Title": "",
   "Phone": "(225) 341-2853",
   "Website": "Smalltalkcounseling.Com",
   "Location": "Private",
   "Business": "Single Loc"
 },
 {
   "Company": "Mental Health Assn",
   "Address": "111 N 22nd St",
   "City": "Baton Rouge",
   "State": "LA",
   "zip": 70806,
   "Title": "",
   "Phone": "(225) 218-6208",
   "Website": "Mhagbr.Com",
   "Location": "Private",
   "Business": "Single Loc"
 },
 {
   "Company": "Brown, Laura Phd",
   "Address": "11114 Cedar Park Ave # A",
   "City": "Baton Rouge",
   "State": "LA",
   "zip": 70809,
   "Title": "PHD",
   "Phone": "(225) 210-1745",
   "Website": "",
   "Location": "Single Loc",
   "Business": "Private"
 },
 {
   "Company": "Oceans Behavioral Hosp Baton",
   "Address": "11135 Florida Blvd",
   "City": "Baton Rouge",
   "State": "LA",
   "zip": 70815,
   "Title": "",
   "Phone": "(225) 356-7030",
   "Website": "Oceanshealthcare.Com",
   "Location": "Private",
   "Business": "Branch"
 },
 {
   "Company": "Mental Health Assn",
   "Address": "113 N 22nd St",
   "City": "Baton Rouge",
   "State": "LA",
   "zip": 70806,
   "Title": "",
   "Phone": "(225) 223-6433",
   "Website": "Louisianamha.Org",
   "Location": "Private",
   "Business": "Single Loc"
 },
 {
   "Company": "Legacy Behavioral Health Of LA",
   "Address": "11505 Perkins Rd # 1",
   "City": "Baton Rouge",
   "State": "LA",
   "zip": 70810,
   "Title": "",
   "Phone": "(225) 819-3262",
   "Website": "Legacybehavioralhealth.Com",
   "Location": "Private",
   "Business": "Single Loc"
 },
 {
   "Company": "Legacy LLC",
   "Address": "11505 Perkins Rd # 1",
   "City": "Baton Rouge",
   "State": "LA",
   "zip": 70810,
   "Title": "",
   "Phone": "(225) 819-3262",
   "Website": "",
   "Location": "Private",
   "Business": "Single Loc"
 },
 {
   "Company": "Baton Rouge Counseling",
   "Address": "11606 Southfork Ave # 101",
   "City": "Baton Rouge",
   "State": "LA",
   "zip": 70816,
   "Title": "",
   "Phone": "(225) 293-2913",
   "Website": "",
   "Location": "Single Loc",
   "Business": "Private"
 },
 {
   "Company": "Whole Health Counseling",
   "Address": "11613 Newcastle Ave # B-1",
   "City": "Baton Rouge",
   "State": "LA",
   "zip": 70816,
   "Title": "",
   "Phone": "(225) 588-0162",
   "Website": "Wholehealthcounselingconsulting.Com",
   "Location": "Private",
   "Business": "Single Loc"
 },
 {
   "Company": "Shoulders Of Strength",
   "Address": "11616 Southfork Ave # 401",
   "City": "Baton Rouge",
   "State": "LA",
   "zip": 70816,
   "Title": "",
   "Phone": "(225) 291-9646",
   "Website": "",
   "Location": "Private",
   "Business": "Single Loc"
 },
 {
   "Company": "Kreative Minds Of Baton Rouge",
   "Address": "11745 Bricksome Ave",
   "City": "Baton Rouge",
   "State": "LA",
   "zip": 70816,
   "Title": "",
   "Phone": "(225) 291-5492",
   "Website": "",
   "Location": "Private",
   "Business": "Single Loc"
 },
 {
   "Company": "Array Of Hope Outreach Ctr LLC",
   "Address": "11752 S Harrells Ferry Rd",
   "City": "Baton Rouge",
   "State": "LA",
   "zip": 70816,
   "Title": "",
   "Phone": "(225) 250-5829",
   "Website": "Arrayofhopeoutreach.Com",
   "Location": "Single Loc",
   "Business": "Private"
 },
 {
   "Company": "Beau Laviolette LCSW Lac",
   "Address": "11843 Bricksome Ave # A",
   "City": "Baton Rouge",
   "State": "LA",
   "zip": 70816,
   "Title": "",
   "Phone": "(504) 261-8654",
   "Website": "Therapyteacher.Com",
   "Location": "Single Loc",
   "Business": "Private"
 },
 {
   "Company": "Forman Leboeuf, Maryelizabe Ph",
   "Address": "11847 Bricksome Ave # C",
   "City": "Baton Rouge",
   "State": "LA",
   "zip": 70816,
   "Title": "PHD",
   "Phone": "(225) 243-4109",
   "Website": "",
   "Location": "Single Loc",
   "Business": "Private"
 },
 {
   "Company": "Behavioral Health Cnsltng",
   "Address": "11848 S Harrells Ferry Rd",
   "City": "Baton Rouge",
   "State": "LA",
   "zip": 70816,
   "Title": "",
   "Phone": "Not Available",
   "Website": "",
   "Location": "Single Loc",
   "Business": "Private"
 },
 {
   "Company": "Helen Wilson Counseling LLC",
   "Address": "1186 Sharynwood Dr",
   "City": "Baton Rouge",
   "State": "LA",
   "zip": 70808,
   "Title": "",
   "Phone": "Not Available",
   "Website": "",
   "Location": "Private",
   "Business": "Single Loc"
 },
 {
   "Company": "Accurate Care",
   "Address": "11861 Coursey Blvd",
   "City": "Baton Rouge",
   "State": "LA",
   "zip": 70816,
   "Title": "",
   "Phone": "(225) 960-2929",
   "Website": "Accuratecarellc.Com",
   "Location": "Single Loc",
   "Business": "Private"
 },
 {
   "Company": "Frances Anne Browning LLC",
   "Address": "11914 Justice Ave",
   "City": "Baton Rouge",
   "State": "LA",
   "zip": 70816,
   "Title": "",
   "Phone": "(225) 292-6000",
   "Website": "",
   "Location": "Single Loc",
   "Business": "Private"
 },
 {
   "Company": "Waggener, Robert F",
   "Address": "11914 Justice Ave",
   "City": "Baton Rouge",
   "State": "LA",
   "zip": 70816,
   "Title": "",
   "Phone": "(225) 291-4282",
   "Website": "",
   "Location": "Private",
   "Business": "Single Loc"
 },
 {
   "Company": "Heard, La'Fonda N",
   "Address": "11940 Bricksome Ave # C",
   "City": "Baton Rouge",
   "State": "LA",
   "zip": 70816,
   "Title": "",
   "Phone": "(225) 250-5829",
   "Website": "",
   "Location": "Single Loc",
   "Business": "Private"
 },
 {
   "Company": "Jones, Jacquatta",
   "Address": "11940 Bricksome Ave # C",
   "City": "Baton Rouge",
   "State": "LA",
   "zip": 70816,
   "Title": "",
   "Phone": "(225) 250-5829",
   "Website": "",
   "Location": "Private",
   "Business": "Single Loc"
 },
 {
   "Company": "Jupiter, Petrina",
   "Address": "11940 Bricksome Ave # C",
   "City": "Baton Rouge",
   "State": "LA",
   "zip": 70816,
   "Title": "",
   "Phone": "(225) 250-5829",
   "Website": "",
   "Location": "Private",
   "Business": "Single Loc"
 },
 {
   "Company": "Sanders, Alice",
   "Address": "11940 Bricksome Ave # C",
   "City": "Baton Rouge",
   "State": "LA",
   "zip": 70816,
   "Title": "",
   "Phone": "(225) 250-5829",
   "Website": "",
   "Location": "Private",
   "Business": "Single Loc"
 },
 {
   "Company": "Hayes, Jacqueline",
   "Address": "1200 S Acadian Thruway",
   "City": "Baton Rouge",
   "State": "LA",
   "zip": 70806,
   "Title": "",
   "Phone": "(225) 831-4998",
   "Website": "",
   "Location": "Single Loc",
   "Business": "Private"
 },
 {
   "Company": "James A Vanhook III Phd LLC",
   "Address": "1200 S Acadian Thruway",
   "City": "Baton Rouge",
   "State": "LA",
   "zip": 70806,
   "Title": "PHD",
   "Phone": "(225) 346-6805",
   "Website": "",
   "Location": "Private",
   "Business": "Single Loc"
 },
 {
   "Company": "Hope Community Svc",
   "Address": "12097 Old Hammond Hwy",
   "City": "Baton Rouge",
   "State": "LA",
   "zip": 70816,
   "Title": "",
   "Phone": "(225) 246-8816",
   "Website": "",
   "Location": "Private",
   "Business": "Single Loc"
 },
 {
   "Company": "Cardinal Community Svc LLC",
   "Address": "12097 Old Hammond Hwy # G1",
   "City": "Baton Rouge",
   "State": "LA",
   "zip": 70816,
   "Title": "",
   "Phone": "(225) 421-1686",
   "Website": "",
   "Location": "Single Loc",
   "Business": "Private"
 },
 {
   "Company": "Renewing-The Mind Counseling",
   "Address": "12097 Old Hammond Hwy # G1",
   "City": "Baton Rouge",
   "State": "LA",
   "zip": 70816,
   "Title": "",
   "Phone": "(225) 401-2255",
   "Website": "",
   "Location": "Private",
   "Business": "Single Loc"
 },
 {
   "Company": "Progressive Health",
   "Address": "12112 Greenwell Springs Rd",
   "City": "Baton Rouge",
   "State": "LA",
   "zip": 70814,
   "Title": "",
   "Phone": "(225) 654-2900",
   "Website": "",
   "Location": "Private",
   "Business": "Single Loc"
 },
 {
   "Company": "New Horizons Behavioral Health",
   "Address": "12628 Hooper Rd",
   "City": "Baton Rouge",
   "State": "LA",
   "zip": 70818,
   "Title": "",
   "Phone": "(225) 953-8170",
   "Website": "Newhorizonsbehavioralhealthcenter.Com",
   "Location": "Private",
   "Business": "Single Loc"
 },
 {
   "Company": "Karen R Speier Phd Mp",
   "Address": "1321 Richland Ave",
   "City": "Baton Rouge",
   "State": "LA",
   "zip": 70806,
   "Title": "PHD",
   "Phone": "(225) 383-2100",
   "Website": "Drkarenpsychologist.Com",
   "Location": "Private",
   "Business": "Single Loc"
 },
 {
   "Company": "Resources For Professional",
   "Address": "135 Croydon Ave",
   "City": "Baton Rouge",
   "State": "LA",
   "zip": 70806,
   "Title": "",
   "Phone": "(225) 928-8557",
   "Website": "",
   "Location": "Private",
   "Business": "Single Loc"
 },
 {
   "Company": "Chuck Bradley Ma Lmft Lpc",
   "Address": "135 Croydon Ave # A",
   "City": "Baton Rouge",
   "State": "LA",
   "zip": 70806,
   "Title": "",
   "Phone": "(225) 928-8557",
   "Website": "Chuckbradleycounseling.Com",
   "Location": "Single Loc",
   "Business": "Private"
 },
 {
   "Company": "Visions 3",
   "Address": "13848 Cypress Ridge Ave",
   "City": "Baton Rouge",
   "State": "LA",
   "zip": 70817,
   "Title": "",
   "Phone": "(225) 442-1597",
   "Website": "",
   "Location": "Private",
   "Business": "Single Loc"
 },
 {
   "Company": "Healing Path Counseling Svc",
   "Address": "140 Mcgehee Dr",
   "City": "Baton Rouge",
   "State": "LA",
   "zip": 70815,
   "Title": "",
   "Phone": "(225) 892-4444",
   "Website": "Staci-Short-Ma-Lmft-Lpc-And-Healing-Path",
   "Location": "Single Loc",
   "Business": "Private"
 },
 {
   "Company": "A Hand When Needed",
   "Address": "146 Mcgehee Dr",
   "City": "Baton Rouge",
   "State": "LA",
   "zip": 70815,
   "Title": "",
   "Phone": "(225) 275-7273",
   "Website": "A-Hand-When-Needed-Inc.Business.Site",
   "Location": "Single Loc",
   "Business": "Private"
 },
 {
   "Company": "Still Water Counseling & Thrpy",
   "Address": "14635 S Harrells Ferry Rd # 1c",
   "City": "Baton Rouge",
   "State": "LA",
   "zip": 70816,
   "Title": "",
   "Phone": "Not Available",
   "Website": "",
   "Location": "Private",
   "Business": "Single Loc"
 },
 {
   "Company": "Renewal Counseling & Wellness",
   "Address": "1520 Thomas H Delpit Dr",
   "City": "Baton Rouge",
   "State": "LA",
   "zip": 70802,
   "Title": "",
   "Phone": "(225) 443-9780",
   "Website": "",
   "Location": "Private",
   "Business": "Single Loc"
 },
 {
   "Company": "Macro Group Inc",
   "Address": "1520 Thomas H Delpit Dr # 219",
   "City": "Baton Rouge",
   "State": "LA",
   "zip": 70802,
   "Title": "",
   "Phone": "(225) 389-0138",
   "Website": "",
   "Location": "Private",
   "Business": "Single Loc"
 },
 {
   "Company": "Area Alliance For The Homeless",
   "Address": "153 N 17th St",
   "City": "Baton Rouge",
   "State": "LA",
   "zip": 70802,
   "Title": "",
   "Phone": "(225) 388-5800",
   "Website": "Homelessinbr.Org",
   "Location": "Single Loc",
   "Business": "Private"
 },
 {
   "Company": "Primary Care Solutions",
   "Address": "158 Mcgehee Dr",
   "City": "Baton Rouge",
   "State": "LA",
   "zip": 70815,
   "Title": "",
   "Phone": "(225) 272-5271",
   "Website": "Primarycaresolutions.Org",
   "Location": "Private",
   "Business": "Branch"
 },
 {
   "Company": "Brightside Behavioral LLC",
   "Address": "1651 Lobdell Ave # 203-B",
   "City": "Baton Rouge",
   "State": "LA",
   "zip": 70806,
   "Title": "",
   "Phone": "(225) 405-5861",
   "Website": "",
   "Location": "Single Loc",
   "Business": "Private"
 },
 {
   "Company": "Louisiana Empowerment Svc",
   "Address": "1676 Dallas Dr # C",
   "City": "Baton Rouge",
   "State": "LA",
   "zip": 70806,
   "Title": "",
   "Phone": "(225) 292-5151",
   "Website": "Lescounseling.Com",
   "Location": "Private",
   "Business": "Single Loc"
 },
 {
   "Company": "New Transitions Health Ctr LLC",
   "Address": "170 W Washington St",
   "City": "Baton Rouge",
   "State": "LA",
   "zip": 70802,
   "Title": "",
   "Phone": "(225) 389-6697",
   "Website": "",
   "Location": "Private",
   "Business": "Single Loc"
 },
 {
   "Company": "Transitions Psychiatric Ctr",
   "Address": "17000 Medical Center Dr",
   "City": "Baton Rouge",
   "State": "LA",
   "zip": 70816,
   "Title": "",
   "Phone": "(225) 755-4897",
   "Website": "",
   "Location": "Private",
   "Business": "Single Loc"
 },
 {
   "Company": "Murphy Toerner & Assoc",
   "Address": "17170 Perkins Rd",
   "City": "Baton Rouge",
   "State": "LA",
   "zip": 70810,
   "Title": "",
   "Phone": "(225) 753-7773",
   "Website": "",
   "Location": "Private",
   "Business": "Single Loc"
 },
 {
   "Company": "Eclectic Cognitive Behavioral",
   "Address": "1733 Wooddale Blvd",
   "City": "Baton Rouge",
   "State": "LA",
   "zip": 70806,
   "Title": "",
   "Phone": "(225) 924-2800",
   "Website": "Eclecticcbc.Com",
   "Location": "Single Loc",
   "Business": "Private"
 },
 {
   "Company": "Thomas, Dimonique D",
   "Address": "2035 Wooddale Blvd # F",
   "City": "Baton Rouge",
   "State": "LA",
   "zip": 70806,
   "Title": "",
   "Phone": "(225) 907-8933",
   "Website": "",
   "Location": "Private",
   "Business": "Single Loc"
 },
 {
   "Company": "Accurate Care LLC",
   "Address": "216 Lobdell Ave",
   "City": "Baton Rouge",
   "State": "LA",
   "zip": 70806,
   "Title": "",
   "Phone": "(225) 612-8656",
   "Website": "",
   "Location": "Single Loc",
   "Business": "Private"
 },
 {
   "Company": "Blauvelt, Sonia Phd",
   "Address": "2210 Siegen Lane #2a",
   "City": "Baton Rouge",
   "State": "LA",
   "zip": 70810,
   "Title": "PHD",
   "Phone": "(214) 566-9191",
   "Website": "",
   "Location": "Single Loc",
   "Business": "Private"
 },
 {
   "Company": "Allstar Community Care",
   "Address": "2211 Weymouth Dr # B",
   "City": "Baton Rouge",
   "State": "LA",
   "zip": 70809,
   "Title": "",
   "Phone": "(225) 923-3733",
   "Website": "Allstarcommunitycare.Com",
   "Location": "Single Loc",
   "Business": "Private"
 },
 {
   "Company": "Family Psychology Ctr Inc",
   "Address": "2214 Quail Run",
   "City": "Baton Rouge",
   "State": "LA",
   "zip": 70808,
   "Title": "PHD",
   "Phone": "(225) 767-5650",
   "Website": "",
   "Location": "Single Loc",
   "Business": "Private"
 },
 {
   "Company": "Giles, Betti",
   "Address": "2214 Quail Run",
   "City": "Baton Rouge",
   "State": "LA",
   "zip": 70808,
   "Title": "",
   "Phone": "(225) 819-2621",
   "Website": "",
   "Location": "Single Loc",
   "Business": "Private"
 },
 {
   "Company": "Mayeux, Janina Phd",
   "Address": "2214 Quail Run",
   "City": "Baton Rouge",
   "State": "LA",
   "zip": 70808,
   "Title": "PHD",
   "Phone": "(225) 435-7631",
   "Website": "Bayoupsychotherapy.Com",
   "Location": "Private",
   "Business": "Single Loc"
 },
 {
   "Company": "Mccaughey, Tiffany Phd",
   "Address": "2223 Quail Run # H1",
   "City": "Baton Rouge",
   "State": "LA",
   "zip": 70808,
   "Title": "PHD",
   "Phone": "(225) 578-8774",
   "Website": "",
   "Location": "Private",
   "Business": "Single Loc"
 },
 {
   "Company": "Adolescent & Family Counseling",
   "Address": "2320 Drusilla Ln # E",
   "City": "Baton Rouge",
   "State": "LA",
   "zip": 70809,
   "Title": "",
   "Phone": "(225) 930-4530",
   "Website": "",
   "Location": "Single Loc",
   "Business": "Private"
 },
 {
   "Company": "Hayes, David Phd",
   "Address": "2333 Government St",
   "City": "Baton Rouge",
   "State": "LA",
   "zip": 70806,
   "Title": "PHD",
   "Phone": "(225) 343-1394",
   "Website": "",
   "Location": "Single Loc",
   "Business": "Private"
 },
 {
   "Company": "Jensen, Susanne M Phd",
   "Address": "2333 Government St",
   "City": "Baton Rouge",
   "State": "LA",
   "zip": 70806,
   "Title": "PHD",
   "Phone": "(225) 343-1394",
   "Website": "",
   "Location": "Private",
   "Business": "Single Loc"
 },
 {
   "Company": "Le, Melinda H Phd",
   "Address": "2333 Government St",
   "City": "Baton Rouge",
   "State": "LA",
   "zip": 70806,
   "Title": "PHD",
   "Phone": "(225) 615-0179",
   "Website": "",
   "Location": "Private",
   "Business": "Single Loc"
 },
 {
   "Company": "Baton Rouge Psychological",
   "Address": "2356 Drusilla Ln",
   "City": "Baton Rouge",
   "State": "LA",
   "zip": 70809,
   "Title": "",
   "Phone": "(225) 924-0188",
   "Website": "",
   "Location": "Single Loc",
   "Business": "Private"
 },
 {
   "Company": "Hayes, Jacqueline",
   "Address": "2414 Bunker Hill Dr",
   "City": "Baton Rouge",
   "State": "LA",
   "zip": 70808,
   "Title": "",
   "Phone": "(225) 218-1960",
   "Website": "",
   "Location": "Single Loc",
   "Business": "Private"
 },
 {
   "Company": "Riverview Behavioral Health",
   "Address": "2526 Rome Dr # C",
   "City": "Baton Rouge",
   "State": "LA",
   "zip": 70814,
   "Title": "",
   "Phone": "(225) 281-0790",
   "Website": "",
   "Location": "Private",
   "Business": "Single Loc"
 },
 {
   "Company": "Geo Reentry Svc",
   "Address": "2751 Wooddale Blvd",
   "City": "Baton Rouge",
   "State": "LA",
   "zip": 70805,
   "Title": "",
   "Phone": "(225) 218-4636",
   "Website": "Reentryla.Com",
   "Location": "Single Loc",
   "Business": "Private"
 },
 {
   "Company": "Capital Area Human Svc Dist",
   "Address": "2751 Wooddale Blvd # A",
   "City": "Baton Rouge",
   "State": "LA",
   "zip": 70805,
   "Title": "",
   "Phone": "(225) 922-0478",
   "Website": "Dcfs.Louisiana.Gov",
   "Location": "Branch",
   "Business": "Private"
 },
 {
   "Company": "Capital Area Human Svc Dstrsct",
   "Address": "2751 Wooddale Blvd # A",
   "City": "Baton Rouge",
   "State": "LA",
   "zip": 70805,
   "Title": "",
   "Phone": "(225) 925-1906",
   "Website": "Cahsd.Org",
   "Location": "Branch",
   "Business": "Private"
 },
 {
   "Company": "Post Trauma Institute Of LA",
   "Address": "2798 Oneal Ln # 8",
   "City": "Baton Rouge",
   "State": "LA",
   "zip": 70816,
   "Title": "",
   "Phone": "(225) 751-5412",
   "Website": "Mypsychnetwork.Com",
   "Location": "Private",
   "Business": "Single Loc"
 },
 {
   "Company": "Integrity Mental Health Svc",
   "Address": "2900 Westfork Dr # 401",
   "City": "Baton Rouge",
   "State": "LA",
   "zip": 70827,
   "Title": "",
   "Phone": "(225) 328-5551",
   "Website": "Integritymentalhealthservices.Com",
   "Location": "Private",
   "Business": "Single Loc"
 },
 {
   "Company": "Soulful Counseling LLC",
   "Address": "2900 Westfork Dr # 401",
   "City": "Baton Rouge",
   "State": "LA",
   "zip": 70827,
   "Title": "",
   "Phone": "(225) 380-3752",
   "Website": "",
   "Location": "Private",
   "Business": "Single Loc"
 },
 {
   "Company": "Counseling For Growth",
   "Address": "2924 Brakley Dr # B2",
   "City": "Baton Rouge",
   "State": "LA",
   "zip": 70816,
   "Title": "",
   "Phone": "(225) 614-2896",
   "Website": "Counselingforgrowthbr.Com",
   "Location": "Single Loc",
   "Business": "Private"
 },
 {
   "Company": "Cypress Center For Counseling",
   "Address": "2924 Brakley Dr # B2",
   "City": "Baton Rouge",
   "State": "LA",
   "zip": 70816,
   "Title": "",
   "Phone": "Not Available",
   "Website": "",
   "Location": "Single Loc",
   "Business": "Private"
 },
 {
   "Company": "Nia",
   "Address": "2929 Millerville Rd",
   "City": "Baton Rouge",
   "State": "LA",
   "zip": 70816,
   "Title": "",
   "Phone": "(225) 349-8984",
   "Website": "Nialifecounseling.Com",
   "Location": "Private",
   "Business": "Single Loc"
 },
 {
   "Company": "Baton Rouge Therapeutic",
   "Address": "3009 Monterrey Dr # C",
   "City": "Baton Rouge",
   "State": "LA",
   "zip": 70814,
   "Title": "",
   "Phone": "Not Available",
   "Website": "",
   "Location": "Single Loc",
   "Business": "Private"
 },
 {
   "Company": "Always Amazing Counseling",
   "Address": "301 Main St # 2200",
   "City": "Baton Rouge",
   "State": "LA",
   "zip": 70801,
   "Title": "",
   "Phone": "(225) 224-6844",
   "Website": "",
   "Location": "Single Loc",
   "Business": "Private"
 },
 {
   "Company": "Sophrosyne Counseling Svc",
   "Address": "301 Main St # 2200",
   "City": "Baton Rouge",
   "State": "LA",
   "zip": 70801,
   "Title": "",
   "Phone": "(225) 297-1100",
   "Website": "Sophrosynecounseling.Com",
   "Location": "Private",
   "Business": "Single Loc"
 },
 {
   "Company": "Helping Hands Consultation LLC",
   "Address": "3040 Teddy Dr",
   "City": "Baton Rouge",
   "State": "LA",
   "zip": 70809,
   "Title": "",
   "Phone": "(225) 218-4444",
   "Website": "",
   "Location": "Private",
   "Business": "Single Loc"
 },
 {
   "Company": "NAMI Louisiana",
   "Address": "307 France St # A",
   "City": "Baton Rouge",
   "State": "LA",
   "zip": 70802,
   "Title": "",
   "Phone": "(225) 291-6262",
   "Website": "Namilouisiana.Org",
   "Location": "Private",
   "Business": "Branch"
 },
 {
   "Company": "Red Stick Mental Health LLC",
   "Address": "3080 Teddy Dr # A",
   "City": "Baton Rouge",
   "State": "LA",
   "zip": 70809,
   "Title": "",
   "Phone": "Not Available",
   "Website": "Redstickmh.Com",
   "Location": "Private",
   "Business": "Single Loc"
 },
 {
   "Company": "Pelicanbayou Counseling Agcy",
   "Address": "3084 Westfork Dr # C",
   "City": "Baton Rouge",
   "State": "LA",
   "zip": 70816,
   "Title": "",
   "Phone": "(225) 296-6083",
   "Website": "",
   "Location": "Private",
   "Business": "Single Loc"
 },
 {
   "Company": "Thomas, Byroneishia",
   "Address": "3180 Convention St # A",
   "City": "Baton Rouge",
   "State": "LA",
   "zip": 70806,
   "Title": "",
   "Phone": "(225) 963-9601",
   "Website": "",
   "Location": "Private",
   "Business": "Single Loc"
 },
 {
   "Company": "Proactive Behavior Solutions",
   "Address": "3233 S Sherwood Forest Blvd",
   "City": "Baton Rouge",
   "State": "LA",
   "zip": 70816,
   "Title": "",
   "Phone": "Not Available",
   "Website": "",
   "Location": "Private",
   "Business": "Single Loc"
 },
 {
   "Company": "Winning Solutions Counseling",
   "Address": "3233 S Sherwood Forest Blvd",
   "City": "Baton Rouge",
   "State": "LA",
   "zip": 70816,
   "Title": "",
   "Phone": "Not Available",
   "Website": "",
   "Location": "Private",
   "Business": "Single Loc"
 },
 {
   "Company": "Stop The Killing Inc",
   "Address": "3455 Florida St",
   "City": "Baton Rouge",
   "State": "LA",
   "zip": 70806,
   "Title": "",
   "Phone": "(225) 262-9574",
   "Website": "Stopthekillinginc.Org",
   "Location": "Private",
   "Business": "Single Loc"
 },
 {
   "Company": "Aptaker Psychological Assoc",
   "Address": "3475 Brentwood Dr",
   "City": "Baton Rouge",
   "State": "LA",
   "zip": 70809,
   "Title": "PHD",
   "Phone": "(225) 929-9030",
   "Website": "Draptaker.Com",
   "Location": "Single Loc",
   "Business": "Private"
 },
 {
   "Company": "Synergy Behavioral Health",
   "Address": "355 Saint Charles St",
   "City": "Baton Rouge",
   "State": "LA",
   "zip": 70802,
   "Title": "",
   "Phone": "(225) 726-7603",
   "Website": "Synergy-Behavioral-Health-Services-Llc.B",
   "Location": "Private",
   "Business": "Single Loc"
 },
 {
   "Company": "Baton Rouge Gen Med Ctr-Mid",
   "Address": "3600 Florida St",
   "City": "Baton Rouge",
   "State": "LA",
   "zip": 70806,
   "Title": "",
   "Phone": "(225) 387-7000",
   "Website": "Brgeneral.Org",
   "Location": "Subsidiary",
   "Business": "Private"
 },
 {
   "Company": "BEHAVIORAL Health Svc",
   "Address": "3600 Florida St",
   "City": "Baton Rouge",
   "State": "LA",
   "zip": 70806,
   "Title": "",
   "Phone": "(225) 387-7900",
   "Website": "Ldh.La.Gov",
   "Location": "Single Loc",
   "Business": "Private"
 },
 {
   "Company": "Sonnier-Hillis, Bridget L Phd",
   "Address": "3888 North Blvd",
   "City": "Baton Rouge",
   "State": "LA",
   "zip": 70806,
   "Title": "PHD",
   "Phone": "(225) 344-3551",
   "Website": "",
   "Location": "Private",
   "Business": "Single Loc"
 },
 {
   "Company": "Baton Rouge Behavioral Hosp",
   "Address": "4040 North Blvd",
   "City": "Baton Rouge",
   "State": "LA",
   "zip": 70806,
   "Title": "",
   "Phone": "(225) 300-8470",
   "Website": "Batonrougebehavioral.Com",
   "Location": "Branch",
   "Business": "Private"
 },
 {
   "Company": "Parkside Behavioral Health",
   "Address": "4040 North Blvd",
   "City": "Baton Rouge",
   "State": "LA",
   "zip": 70806,
   "Title": "",
   "Phone": "(225) 343-3769",
   "Website": "",
   "Location": "Private",
   "Business": "Single Loc"
 },
 {
   "Company": "Beta Community Svc",
   "Address": "411 Colonial Dr",
   "City": "Baton Rouge",
   "State": "LA",
   "zip": 70806,
   "Title": "",
   "Phone": "(225) 964-5000",
   "Website": "Betacommunityservices.Com",
   "Location": "Branch",
   "Business": "Private"
 },
 {
   "Company": "Cognitive Development Ctr",
   "Address": "411 Colonial Dr",
   "City": "Baton Rouge",
   "State": "LA",
   "zip": 70806,
   "Title": "",
   "Phone": "(225) 926-9706",
   "Website": "Cognitivedevelopmentcenterla.Com",
   "Location": "Branch",
   "Business": "Private"
 },
 {
   "Company": "Jmj Psychological Svc LLC",
   "Address": "412 N 4th St # 100",
   "City": "Baton Rouge",
   "State": "LA",
   "zip": 70802,
   "Title": "",
   "Phone": "(225) 719-1988",
   "Website": "",
   "Location": "Private",
   "Business": "Single Loc"
 },
 {
   "Company": "Popleon, Kilrain W",
   "Address": "4315 Bluebonnet Blvd # B",
   "City": "Baton Rouge",
   "State": "LA",
   "zip": 70809,
   "Title": "",
   "Phone": "(225) 223-6968",
   "Website": "",
   "Location": "Private",
   "Business": "Single Loc"
 },
 {
   "Company": "Restore Outreach Ctr",
   "Address": "4315 Bluebonnet Blvd # B",
   "City": "Baton Rouge",
   "State": "LA",
   "zip": 70809,
   "Title": "",
   "Phone": "(225) 223-6968",
   "Website": "Restoreoutreachcenter.Org",
   "Location": "Private",
   "Business": "Single Loc"
 },
 {
   "Company": "Booker, Charles",
   "Address": "4348 S Jeffrey Dr # 101",
   "City": "Baton Rouge",
   "State": "LA",
   "zip": 70816,
   "Title": "",
   "Phone": "(225) 361-0291",
   "Website": "",
   "Location": "Single Loc",
   "Business": "Private"
 },
 {
   "Company": "LA Excel Care Inc",
   "Address": "4348 S Jeffrey Dr # 102",
   "City": "Baton Rouge",
   "State": "LA",
   "zip": 70816,
   "Title": "",
   "Phone": "(225) 361-0219",
   "Website": "Excelcarela.Org",
   "Location": "Private",
   "Business": "Single Loc"
 },
 {
   "Company": "Seaside Health Syst-Baton Rg",
   "Address": "4363 Convention St",
   "City": "Baton Rouge",
   "State": "LA",
   "zip": 70806,
   "Title": "",
   "Phone": "(225) 238-3043",
   "Website": "Seasidehc.Com",
   "Location": "Private",
   "Business": "Branch"
 },
 {
   "Company": "Cl's Counseling-Consltng Firm",
   "Address": "4520 S Sherwood Forest Bl #245",
   "City": "Baton Rouge",
   "State": "LA",
   "zip": 70816,
   "Title": "",
   "Phone": "(225) 405-1879",
   "Website": "",
   "Location": "Single Loc",
   "Business": "Private"
 },
 {
   "Company": "Louisiana Spine-Sports Mdcn",
   "Address": "4545 Bluebonnet Blvd # A",
   "City": "Baton Rouge",
   "State": "LA",
   "zip": 70809,
   "Title": "",
   "Phone": "(225) 766-2311",
   "Website": "",
   "Location": "Private",
   "Business": "Single Loc"
 },
 {
   "Company": "New Heights Family Health Ctr",
   "Address": "4550 North Blvd # 201",
   "City": "Baton Rouge",
   "State": "LA",
   "zip": 70806,
   "Title": "",
   "Phone": "(225) 706-0300",
   "Website": "",
   "Location": "Private",
   "Business": "Single Loc"
 },
 {
   "Company": "Neuropsychology Of Louisiana",
   "Address": "4611 Bluebonnet Blvd # B",
   "City": "Baton Rouge",
   "State": "LA",
   "zip": 70809,
   "Title": "PHD",
   "Phone": "(225) 926-7500",
   "Website": "Louisiananeuropsych.Com",
   "Location": "Private",
   "Business": "Single Loc"
 },
 {
   "Company": "Tramontana Joseph",
   "Address": "4611 Bluebonnet Blvd # B",
   "City": "Baton Rouge",
   "State": "LA",
   "zip": 70809,
   "Title": "",
   "Phone": "(225) 361-8134",
   "Website": "Drjosephtramontana.Com",
   "Location": "Private",
   "Business": "Single Loc"
 },
 {
   "Company": "Center For Adult Behavioral",
   "Address": "4615 Government St",
   "City": "Baton Rouge",
   "State": "LA",
   "zip": 70806,
   "Title": "",
   "Phone": "(800) 590-2849",
   "Website": "",
   "Location": "Single Loc",
   "Business": "Private"
 },
 {
   "Company": "Sheridan, Karen R Phd",
   "Address": "4615 Government St",
   "City": "Baton Rouge",
   "State": "LA",
   "zip": 70806,
   "Title": "PHD",
   "Phone": "(225) 362-5378",
   "Website": "",
   "Location": "Private",
   "Business": "Single Loc"
 },
 {
   "Company": "Hidalgo Health Assoc",
   "Address": "4637 Jamestown Ave # 1b",
   "City": "Baton Rouge",
   "State": "LA",
   "zip": 70808,
   "Title": "",
   "Phone": "(225) 927-0160",
   "Website": "Sales.Healthassociatesllc.Com",
   "Location": "Private",
   "Business": "Single Loc"
 },
 {
   "Company": "Child Psychological Svc",
   "Address": "4724 Jamestown Ave",
   "City": "Baton Rouge",
   "State": "LA",
   "zip": 70808,
   "Title": "PHD",
   "Phone": "(225) 928-5437",
   "Website": "",
   "Location": "Single Loc",
   "Business": "Private"
 },
 {
   "Company": "Pure Mind Counseling-Wellness",
   "Address": "4875 S Sherwood Forest Blv #D1",
   "City": "Baton Rouge",
   "State": "LA",
   "zip": 70816,
   "Title": "",
   "Phone": "(225) 217-2898",
   "Website": "Puremindcounseling.Com",
   "Location": "Private",
   "Business": "Single Loc"
 },
 {
   "Company": "Professional Counseling Svc",
   "Address": "4880 Bluebonnet Blvd",
   "City": "Baton Rouge",
   "State": "LA",
   "zip": 70809,
   "Title": "",
   "Phone": "(225) 447-8927",
   "Website": "",
   "Location": "Private",
   "Business": "Single Loc"
 },
 {
   "Company": "Conquest Counseling LLC",
   "Address": "4919 Jamestown Ave # 206",
   "City": "Baton Rouge",
   "State": "LA",
   "zip": 70808,
   "Title": "",
   "Phone": "Not Available",
   "Website": "",
   "Location": "Single Loc",
   "Business": "Private"
 },
 {
   "Company": "Sonnier-Hillis, Bridget L Phd",
   "Address": "500 Rue DE LA Vie St # 411",
   "City": "Baton Rouge",
   "State": "LA",
   "zip": 70817,
   "Title": "PHD",
   "Phone": "(225) 924-8584",
   "Website": "",
   "Location": "Private",
   "Business": "Single Loc"
 },
 {
   "Company": "Tucker, Raymond Phd",
   "Address": "5000 Hennessy Blvd",
   "City": "Baton Rouge",
   "State": "LA",
   "zip": 70808,
   "Title": "PHD",
   "Phone": "(225) 765-6565",
   "Website": "",
   "Location": "Private",
   "Business": "Single Loc"
 },
 {
   "Company": "Lodge, Edris F",
   "Address": "5049 Melrose Blvd # 1",
   "City": "Baton Rouge",
   "State": "LA",
   "zip": 70806,
   "Title": "",
   "Phone": "(225) 933-5553",
   "Website": "",
   "Location": "Private",
   "Business": "Single Loc"
 },
 {
   "Company": "Our Lady-The Lake Physician",
   "Address": "5131 Odonovan Dr # 201",
   "City": "Baton Rouge",
   "State": "LA",
   "zip": 70808,
   "Title": "",
   "Phone": "(225) 374-0220",
   "Website": "Ololrmc.Com",
   "Location": "Private",
   "Business": "Single Loc"
 },
 {
   "Company": "Our Lady-The Lake Physician",
   "Address": "5131 Odonovan Dr # 300",
   "City": "Baton Rouge",
   "State": "LA",
   "zip": 70808,
   "Title": "",
   "Phone": "(225) 374-0400",
   "Website": "Ololrmc.Com",
   "Location": "Private",
   "Business": "Single Loc"
 },
 {
   "Company": "Family Institute For Recovery",
   "Address": "5253 Dijon Dr",
   "City": "Baton Rouge",
   "State": "LA",
   "zip": 70808,
   "Title": "",
   "Phone": "(225) 239-7830",
   "Website": "",
   "Location": "Single Loc",
   "Business": "Private"
 },
 {
   "Company": "Red Stick Counseling Svc LLC",
   "Address": "530 Lakeland Dr",
   "City": "Baton Rouge",
   "State": "LA",
   "zip": 70802,
   "Title": "",
   "Phone": "(225) 465-3080",
   "Website": "",
   "Location": "Private",
   "Business": "Single Loc"
 },
 {
   "Company": "Fernandez, Deborah",
   "Address": "5329 Dijon Dr",
   "City": "Baton Rouge",
   "State": "LA",
   "zip": 70808,
   "Title": "",
   "Phone": "(225) 767-2106",
   "Website": "",
   "Location": "Single Loc",
   "Business": "Private"
 },
 {
   "Company": "Metamorphosis Counseling LLC",
   "Address": "5329 Dijon Dr # 105",
   "City": "Baton Rouge",
   "State": "LA",
   "zip": 70808,
   "Title": "",
   "Phone": "Not Available",
   "Website": "",
   "Location": "Private",
   "Business": "Single Loc"
 },
 {
   "Company": "Amond Family Counseling Ctr",
   "Address": "5516 Superior Dr # B",
   "City": "Baton Rouge",
   "State": "LA",
   "zip": 70816,
   "Title": "",
   "Phone": "(225) 295-9379",
   "Website": "",
   "Location": "Single Loc",
   "Business": "Private"
 },
 {
   "Company": "Belaire Counseling Svc",
   "Address": "5536 Superior Dr # B",
   "City": "Baton Rouge",
   "State": "LA",
   "zip": 70816,
   "Title": "PHD",
   "Phone": "(225) 291-1335",
   "Website": "",
   "Location": "Single Loc",
   "Business": "Private"
 },
 {
   "Company": "Golden Rule Counseling LLC",
   "Address": "5917 Jones Creek Rd # 200a",
   "City": "Baton Rouge",
   "State": "LA",
   "zip": 70817,
   "Title": "",
   "Phone": "(225) 290-6040",
   "Website": "",
   "Location": "Single Loc",
   "Business": "Private"
 },
 {
   "Company": "Brown, Laura Phd",
   "Address": "6400 Perkins Rd",
   "City": "Baton Rouge",
   "State": "LA",
   "zip": 70808,
   "Title": "PHD",
   "Phone": "(225) 330-0498",
   "Website": "",
   "Location": "Single Loc",
   "Business": "Private"
 },
 {
   "Company": "Stewart, Tiffany Mae Phd",
   "Address": "6400 Perkins Rd",
   "City": "Baton Rouge",
   "State": "LA",
   "zip": 70808,
   "Title": "PHD",
   "Phone": "(225) 763-2554",
   "Website": "",
   "Location": "Private",
   "Business": "Single Loc"
 },
 {
   "Company": "C L Cador Counseling Svc LLC",
   "Address": "6554 Florida Blvd # 238",
   "City": "Baton Rouge",
   "State": "LA",
   "zip": 70806,
   "Title": "",
   "Phone": "(225) 456-2204",
   "Website": "",
   "Location": "Single Loc",
   "Business": "Private"
 },
 {
   "Company": "Jefferson Neurobehavioral Grp",
   "Address": "6555 Perkins Rd # 200",
   "City": "Baton Rouge",
   "State": "LA",
   "zip": 70808,
   "Title": "PHD",
   "Phone": "(225) 368-2297",
   "Website": "Jeffersonneuro.Com",
   "Location": "Private",
   "Business": "Single Loc"
 },
 {
   "Company": "Calamia, Matthew Phd",
   "Address": "6555 Perkins Rd # 500",
   "City": "Baton Rouge",
   "State": "LA",
   "zip": 70808,
   "Title": "PHD",
   "Phone": "(225) 368-2297",
   "Website": "",
   "Location": "Single Loc",
   "Business": "Private"
 },
 {
   "Company": "Jnb Psychology Gs LLC",
   "Address": "6555 Perkins Rd # 500",
   "City": "Baton Rouge",
   "State": "LA",
   "zip": 70808,
   "Title": "",
   "Phone": "(504) 780-1702",
   "Website": "",
   "Location": "Private",
   "Business": "Single Loc"
 },
 {
   "Company": "Lark, Catherine R",
   "Address": "6555 Perkins Rd # 500",
   "City": "Baton Rouge",
   "State": "LA",
   "zip": 70808,
   "Title": "",
   "Phone": "(225) 368-2297",
   "Website": "",
   "Location": "Private",
   "Business": "Single Loc"
 },
 {
   "Company": "Schwehm Kirsten W PHD",
   "Address": "6555 Perkins Rd # 500",
   "City": "Baton Rouge",
   "State": "LA",
   "zip": 70808,
   "Title": "PHD",
   "Phone": "(224) 368-2297",
   "Website": "",
   "Location": "Private",
   "Business": "Single Loc"
 },
 {
   "Company": "Regions Community Behavioral",
   "Address": "660 Lobdell Blvd",
   "City": "Baton Rouge",
   "State": "LA",
   "zip": 70806,
   "Title": "",
   "Phone": "(225) 924-4136",
   "Website": "Seasidehc.Com",
   "Location": "Private",
   "Business": "Single Loc"
 },
 {
   "Company": "Mentally Prepared LLC",
   "Address": "6825 Renoir Ave",
   "City": "Baton Rouge",
   "State": "LA",
   "zip": 70806,
   "Title": "",
   "Phone": "Not Available",
   "Website": "",
   "Location": "Private",
   "Business": "Single Loc"
 },
 {
   "Company": "Nhs Human Svc",
   "Address": "711 Colonial Dr # D",
   "City": "Baton Rouge",
   "State": "LA",
   "zip": 70806,
   "Title": "",
   "Phone": "(225) 246-2162",
   "Website": "Ww.Merakey.Org",
   "Location": "Private",
   "Business": "Single Loc"
 },
 {
   "Company": "Brightside Behavioral LLC",
   "Address": "717 S Foster Dr # P",
   "City": "Baton Rouge",
   "State": "LA",
   "zip": 70806,
   "Title": "",
   "Phone": "Not Available",
   "Website": "",
   "Location": "Single Loc",
   "Business": "Private"
 },
 {
   "Company": "MMO Behavioral Health Systems",
   "Address": "728 North Blvd",
   "City": "Baton Rouge",
   "State": "LA",
   "zip": 70802,
   "Title": "",
   "Phone": "(225) 293-6774",
   "Website": "Mmoinc.Com",
   "Location": "Private",
   "Business": "Headquarter"
 },
 {
   "Company": "Matrix Inc",
   "Address": "740 Colonial Dr",
   "City": "Baton Rouge",
   "State": "LA",
   "zip": 70806,
   "Title": "PHD",
   "Phone": "(225) 216-9422",
   "Website": "Matrixinc.Cc",
   "Location": "Private",
   "Business": "Single Loc"
 },
 {
   "Company": "Sesta, Joseph John",
   "Address": "740 Colonial Dr",
   "City": "Baton Rouge",
   "State": "LA",
   "zip": 70806,
   "Title": "",
   "Phone": "(225) 216-9422",
   "Website": "",
   "Location": "Private",
   "Business": "Single Loc"
 },
 {
   "Company": "Varnado-Sulliv, Paula J Phd",
   "Address": "740 Colonial Dr",
   "City": "Baton Rouge",
   "State": "LA",
   "zip": 70806,
   "Title": "PHD",
   "Phone": "(225) 216-9422",
   "Website": "",
   "Location": "Private",
   "Business": "Single Loc"
 },
 {
   "Company": "Bethesda Rehabilitation Hosp",
   "Address": "7414 Sumrall Dr",
   "City": "Baton Rouge",
   "State": "LA",
   "zip": 70812,
   "Title": "",
   "Phone": "(225) 767-2034",
   "Website": "Southeastregional.Org",
   "Location": "Single Loc",
   "Business": "Private"
 },
 {
   "Company": "Daigle, William B Phd",
   "Address": "7470 Highland Rd",
   "City": "Baton Rouge",
   "State": "LA",
   "zip": 70808,
   "Title": "PHD",
   "Phone": "(225) 615-8076",
   "Website": "",
   "Location": "Single Loc",
   "Business": "Private"
 },
 {
   "Company": "Dawson Psychological Assoc",
   "Address": "7510 Highland Rd",
   "City": "Baton Rouge",
   "State": "LA",
   "zip": 70808,
   "Title": "PHD",
   "Phone": "(225) 766-2822",
   "Website": "Batonrougepsychologists.Com",
   "Location": "Single Loc",
   "Business": "Private"
 },
 {
   "Company": "Dawson Psychological Assoc",
   "Address": "7510 Highland Rd",
   "City": "Baton Rouge",
   "State": "LA",
   "zip": 70808,
   "Title": "PHD",
   "Phone": "(225) 766-2822",
   "Website": "Batonrougepsychologists.Com",
   "Location": "Single Loc",
   "Business": "Private"
 },
 {
   "Company": "Mental Health Counseling Br",
   "Address": "7612 Picardy Ave",
   "City": "Baton Rouge",
   "State": "LA",
   "zip": 70808,
   "Title": "",
   "Phone": "(225) 767-1165",
   "Website": "Mentalhealthcounselingbr.Com",
   "Location": "Private",
   "Business": "Single Loc"
 },
 {
   "Company": "Pizer Patricia Hare",
   "Address": "7612 Picardy Ave # E1",
   "City": "Baton Rouge",
   "State": "LA",
   "zip": 70808,
   "Title": "",
   "Phone": "(225) 767-1165",
   "Website": "Mentalhealthcounselingbr.Com",
   "Location": "Private",
   "Business": "Single Loc"
 },
 {
   "Company": "Viator Counseling Svc",
   "Address": "7777 Hennessy Blvd",
   "City": "Baton Rouge",
   "State": "LA",
   "zip": 70808,
   "Title": "",
   "Phone": "(225) 761-1644",
   "Website": "",
   "Location": "Private",
   "Business": "Single Loc"
 },
 {
   "Company": "Johnson Jr, Jack Allen Phd",
   "Address": "7777 Hennessy Blvd # 501b",
   "City": "Baton Rouge",
   "State": "LA",
   "zip": 70808,
   "Title": "PHD",
   "Phone": "(225) 765-3456",
   "Website": "",
   "Location": "Private",
   "Business": "Single Loc"
 },
 {
   "Company": "Montegudo, Anna",
   "Address": "7777 Hennessy Blvd # 6000",
   "City": "Baton Rouge",
   "State": "LA",
   "zip": 70808,
   "Title": "",
   "Phone": "(225) 765-8648",
   "Website": "",
   "Location": "Private",
   "Business": "Single Loc"
 },
 {
   "Company": "Baton Rouge Speech & Hearing",
   "Address": "7784 Innovation Park Dr",
   "City": "Baton Rouge",
   "State": "LA",
   "zip": 70820,
   "Title": "",
   "Phone": "(225) 343-4232",
   "Website": "Ldh.La.Gov",
   "Location": "Single Loc",
   "Business": "Private"
 },
 {
   "Company": "Noacklesage, Franziska Phd",
   "Address": "7784 Innovation Park Dr",
   "City": "Baton Rouge",
   "State": "LA",
   "zip": 70820,
   "Title": "PHD",
   "Phone": "(225) 343-4232",
   "Website": "",
   "Location": "Private",
   "Business": "Single Loc"
 },
 {
   "Company": "Richard III, Philip Ross",
   "Address": "7784 Innovation Park Dr",
   "City": "Baton Rouge",
   "State": "LA",
   "zip": 70820,
   "Title": "",
   "Phone": "(225) 343-4232",
   "Website": "",
   "Location": "Private",
   "Business": "Single Loc"
 },
 {
   "Company": "Renewal Counseling & Wellness",
   "Address": "7809 Jefferson Hwy # G",
   "City": "Baton Rouge",
   "State": "LA",
   "zip": 70809,
   "Title": "",
   "Phone": "(225) 443-9780",
   "Website": "",
   "Location": "Private",
   "Business": "Single Loc"
 },
 {
   "Company": "Tillis, Crystal M Phd",
   "Address": "7850 Anselmo Ln",
   "City": "Baton Rouge",
   "State": "LA",
   "zip": 70810,
   "Title": "PHD",
   "Phone": "(225) 768-6537",
   "Website": "",
   "Location": "Private",
   "Business": "Single Loc"
 },
 {
   "Company": "Oceans Behavioral Hosp-Baton",
   "Address": "7855 Howell Blvd # 100",
   "City": "Baton Rouge",
   "State": "LA",
   "zip": 70807,
   "Title": "",
   "Phone": "(225) 465-8104",
   "Website": "Oceanshealthcare.Com",
   "Location": "Private",
   "Business": "Branch"
 },
 {
   "Company": "Oceans Behavioral Hosp Baton",
   "Address": "7855 Howell Blvd # 190",
   "City": "Baton Rouge",
   "State": "LA",
   "zip": 70807,
   "Title": "",
   "Phone": "(225) 928-4969",
   "Website": "Oceanshealthcare.Com",
   "Location": "Private",
   "Business": "Branch"
 },
 {
   "Company": "Jbh Counsel Svc LLC",
   "Address": "7865 Jefferson Hwy # D",
   "City": "Baton Rouge",
   "State": "LA",
   "zip": 70809,
   "Title": "",
   "Phone": "(225) 448-6836",
   "Website": "",
   "Location": "Private",
   "Business": "Single Loc"
 },
 {
   "Company": "Health Care Behavioral Health",
   "Address": "7904 Wrenwood Blvd # C",
   "City": "Baton Rouge",
   "State": "LA",
   "zip": 70809,
   "Title": "",
   "Phone": "Not Available",
   "Website": "",
   "Location": "Single Loc",
   "Business": "Private"
 },
 {
   "Company": "Lemoine, Randall L Phd",
   "Address": "7913 Wrenwood Blvd # A",
   "City": "Baton Rouge",
   "State": "LA",
   "zip": 70809,
   "Title": "PHD",
   "Phone": "(225) 383-9808",
   "Website": "",
   "Location": "Private",
   "Business": "Single Loc"
 },
 {
   "Company": "Ray & Dossett Phds Mp LLC",
   "Address": "7913 Wrenwood Blvd # A",
   "City": "Baton Rouge",
   "State": "LA",
   "zip": 70809,
   "Title": "PHD",
   "Phone": "(225) 763-6300",
   "Website": "",
   "Location": "Private",
   "Business": "Single Loc"
 },
 {
   "Company": "Family Therapy Clinic",
   "Address": "7916 Wrenwood Blvd # C",
   "City": "Baton Rouge",
   "State": "LA",
   "zip": 70809,
   "Title": "PHD",
   "Phone": "(225) 302-5092",
   "Website": "",
   "Location": "Single Loc",
   "Business": "Private"
 },
 {
   "Company": "David T Weibel & Assoc LLC",
   "Address": "7931 Picardy Ave # B",
   "City": "Baton Rouge",
   "State": "LA",
   "zip": 70809,
   "Title": "",
   "Phone": "(225) 678-9389",
   "Website": "Drweibel.Com",
   "Location": "Single Loc",
   "Business": "Private"
 },
 {
   "Company": "Alan L Taylor & Assoc Inc",
   "Address": "7931 Picardy Ave # C",
   "City": "Baton Rouge",
   "State": "LA",
   "zip": 70809,
   "Title": "PHD",
   "Phone": "(225) 767-2372",
   "Website": "Alantaylorphd.Com",
   "Location": "Single Loc",
   "Business": "Private"
 },
 {
   "Company": "Masinter, Stanley P",
   "Address": "7936 Wrenwood Blvd",
   "City": "Baton Rouge",
   "State": "LA",
   "zip": 70809,
   "Title": "",
   "Phone": "(225) 927-0252",
   "Website": "",
   "Location": "Private",
   "Business": "Single Loc"
 },
 {
   "Company": "Psychology Clinic",
   "Address": "7936 Wrenwood Blvd # B",
   "City": "Baton Rouge",
   "State": "LA",
   "zip": 70809,
   "Title": "PHD",
   "Phone": "(225) 925-2036",
   "Website": "Wsu.Edu",
   "Location": "Private",
   "Business": "Single Loc"
 },
 {
   "Company": "Koepp Anna H Lcsw",
   "Address": "8017 Jefferson Hwy",
   "City": "Baton Rouge",
   "State": "LA",
   "zip": 70809,
   "Title": "",
   "Phone": "(225) 927-8102",
   "Website": "",
   "Location": "Private",
   "Business": "Single Loc"
 },
 {
   "Company": "Martha Novoa Phd",
   "Address": "8017 Jefferson Hwy # C1",
   "City": "Baton Rouge",
   "State": "LA",
   "zip": 70809,
   "Title": "",
   "Phone": "(225) 939-2761",
   "Website": "Marthanovoaphd.Com",
   "Location": "Private",
   "Business": "Single Loc"
 },
 {
   "Company": "Our Lady Of The Lake Cope",
   "Address": "8080 Margaret Ann Ave",
   "City": "Baton Rouge",
   "State": "LA",
   "zip": 70809,
   "Title": "",
   "Phone": "(225) 765-8900",
   "Website": "Ololrmc.Com",
   "Location": "Private",
   "Business": "Branch"
 },
 {
   "Company": "Tau Center",
   "Address": "8080 Margaret Ann Ave",
   "City": "Baton Rouge",
   "State": "LA",
   "zip": 70809,
   "Title": "",
   "Phone": "(225) 765-8900",
   "Website": "Ololrmc.Com",
   "Location": "Private",
   "Business": "Single Loc"
 },
 {
   "Company": "Bridges Learning Solutions",
   "Address": "8156 Baringer Rd # B",
   "City": "Baton Rouge",
   "State": "LA",
   "zip": 70817,
   "Title": "",
   "Phone": "(225) 930-8961",
   "Website": "Bridgeslearningsolutions.Com",
   "Location": "Single Loc",
   "Business": "Private"
 },
 {
   "Company": "Behavioral Intervention Group",
   "Address": "8180 Siegen Ln",
   "City": "Baton Rouge",
   "State": "LA",
   "zip": 70810,
   "Title": "",
   "Phone": "(225) 757-8002",
   "Website": "",
   "Location": "Single Loc",
   "Business": "Private"
 },
 {
   "Company": "Crescent Consulting Group",
   "Address": "8211 Goodwood Blvd",
   "City": "Baton Rouge",
   "State": "LA",
   "zip": 70806,
   "Title": "",
   "Phone": "(225) 421-1921",
   "Website": "Keywordacquisitions.Com",
   "Location": "Single Loc",
   "Business": "Private"
 },
 {
   "Company": "Renewed Mind Counseling",
   "Address": "8221 Summa Ave # F",
   "City": "Baton Rouge",
   "State": "LA",
   "zip": 70809,
   "Title": "",
   "Phone": "(225) 435-9392",
   "Website": "",
   "Location": "Private",
   "Business": "Single Loc"
 },
 {
   "Company": "Donald G Hoppe & Assoc",
   "Address": "8230 Summa Ave # A",
   "City": "Baton Rouge",
   "State": "LA",
   "zip": 70809,
   "Title": "",
   "Phone": "(225) 765-7597",
   "Website": "Drhoppeassociates.Com",
   "Location": "Single Loc",
   "Business": "Private"
 },
 {
   "Company": "Burnett, Darla",
   "Address": "8261 Summa Ave # C",
   "City": "Baton Rouge",
   "State": "LA",
   "zip": 70809,
   "Title": "",
   "Phone": "(225) 235-7206",
   "Website": "",
   "Location": "Single Loc",
   "Business": "Private"
 },
 {
   "Company": "O'Neil, La'Fonda N",
   "Address": "8261 Summa Ave # G",
   "City": "Baton Rouge",
   "State": "LA",
   "zip": 70809,
   "Title": "",
   "Phone": "(225) 250-5829",
   "Website": "",
   "Location": "Private",
   "Business": "Single Loc"
 },
 {
   "Company": "Sunflower Counseling LLC",
   "Address": "8261 Summa Ave # H",
   "City": "Baton Rouge",
   "State": "LA",
   "zip": 70809,
   "Title": "",
   "Phone": "(225) 324-1767",
   "Website": "Sunflowercounselingllc.Com",
   "Location": "Private",
   "Business": "Single Loc"
 },
 {
   "Company": "Crossroads Professional Cnslng",
   "Address": "8280 Ymca Plaza Dr # 10b",
   "City": "Baton Rouge",
   "State": "LA",
   "zip": 70810,
   "Title": "",
   "Phone": "(225) 341-4147",
   "Website": "Crossroadcoach.Com",
   "Location": "Single Loc",
   "Business": "Private"
 },
 {
   "Company": "Family Focus",
   "Address": "8303 Ohara Ct",
   "City": "Baton Rouge",
   "State": "LA",
   "zip": 70806,
   "Title": "",
   "Phone": "(225) 231-7155",
   "Website": "Familyfocusbr.Com",
   "Location": "Single Loc",
   "Business": "Private"
 },
 {
   "Company": "Richard Braniff Phd Lcsw Lpc",
   "Address": "8318 Jefferson Hwy",
   "City": "Baton Rouge",
   "State": "LA",
   "zip": 70809,
   "Title": "PHD",
   "Phone": "(225) 938-2608",
   "Website": "Braniffcounseling.Com",
   "Location": "Private",
   "Business": "Single Loc"
 },
 {
   "Company": "Jefferson Oaks Behavioral Hlth",
   "Address": "8318 Jefferson Hwy # A",
   "City": "Baton Rouge",
   "State": "LA",
   "zip": 70809,
   "Title": "",
   "Phone": "(225) 927-5624",
   "Website": "Jeffersonoaks.Com",
   "Location": "Private",
   "Business": "Single Loc"
 },
 {
   "Company": "Behavioral Services Fso",
   "Address": "8326 Kelwood Ave",
   "City": "Baton Rouge",
   "State": "LA",
   "zip": 70806,
   "Title": "",
   "Phone": "(225) 929-9738",
   "Website": "",
   "Location": "Single Loc",
   "Business": "Private"
 },
 {
   "Company": "Melissa Luke Gonzalez PHD",
   "Address": "8415 Goodwood Blvd # 200",
   "City": "Baton Rouge",
   "State": "LA",
   "zip": 70806,
   "Title": "PHD",
   "Phone": "(225) 765-6346",
   "Website": "Ololchildrens.Org",
   "Location": "Private",
   "Business": "Single Loc"
 },
 {
   "Company": "Pediatric Development & Thrpy",
   "Address": "8415 Goodwood Blvd # 200",
   "City": "Baton Rouge",
   "State": "LA",
   "zip": 70806,
   "Title": "",
   "Phone": "(225) 765-6346",
   "Website": "Ololchildrens.Org",
   "Location": "Private",
   "Business": "Single Loc"
 },
 {
   "Company": "Regions Behavioral Health",
   "Address": "8416 Cumberland Pl",
   "City": "Baton Rouge",
   "State": "LA",
   "zip": 70806,
   "Title": "",
   "Phone": "(225) 408-6060",
   "Website": "Regionsbh.Com",
   "Location": "Private",
   "Business": "Single Loc"
 },
 {
   "Company": "Durbin, Brenda L",
   "Address": "8480 Bluebonnet Blvd # A",
   "City": "Baton Rouge",
   "State": "LA",
   "zip": 70810,
   "Title": "",
   "Phone": "(225) 292-0155",
   "Website": "",
   "Location": "Single Loc",
   "Business": "Private"
 },
 {
   "Company": "Family Therapy Clinic",
   "Address": "8480 Bluebonnet Blvd # A",
   "City": "Baton Rouge",
   "State": "LA",
   "zip": 70810,
   "Title": "PHD",
   "Phone": "(225) 292-0155",
   "Website": "Ftcla.Com",
   "Location": "Single Loc",
   "Business": "Private"
 },
 {
   "Company": "Family Therapy Clinic Of LA",
   "Address": "8480 Bluebonnet Blvd # A",
   "City": "Baton Rouge",
   "State": "LA",
   "zip": 70810,
   "Title": "",
   "Phone": "(225) 292-0155",
   "Website": "Ftcla.Com",
   "Location": "Single Loc",
   "Business": "Private"
 },
 {
   "Company": "Ag Pysch",
   "Address": "8542 Siegen Ln",
   "City": "Baton Rouge",
   "State": "LA",
   "zip": 70810,
   "Title": "",
   "Phone": "(225) 767-3372",
   "Website": "",
   "Location": "Single Loc",
   "Business": "Private"
 },
 {
   "Company": "Balm-Gilead Christian Cnslng",
   "Address": "8542 Siegen Ln # 6",
   "City": "Baton Rouge",
   "State": "LA",
   "zip": 70810,
   "Title": "",
   "Phone": "(225) 361-9576",
   "Website": "Balm-Of-Gilead-Llc.Business.Site",
   "Location": "Single Loc",
   "Business": "Private"
 },
 {
   "Company": "Gracefully Purposed Counseling",
   "Address": "8542 Siegen Ln # 6",
   "City": "Baton Rouge",
   "State": "LA",
   "zip": 70810,
   "Title": "",
   "Phone": "(225) 888-7689",
   "Website": "Gracefullypurposedcounseling.Com",
   "Location": "Single Loc",
   "Business": "Private"
 },
 {
   "Company": "All Out Community Care Svc",
   "Address": "8562 Jefferson Hwy # A",
   "City": "Baton Rouge",
   "State": "LA",
   "zip": 70809,
   "Title": "",
   "Phone": "(225) 227-2468",
   "Website": "Alloutcc.Com",
   "Location": "Single Loc",
   "Business": "Private"
 },
 {
   "Company": "Flip My Frown Counseling Svc",
   "Address": "8628 Wartelle Ave",
   "City": "Baton Rouge",
   "State": "LA",
   "zip": 70806,
   "Title": "",
   "Phone": "(225) 715-0608",
   "Website": "",
   "Location": "Single Loc",
   "Business": "Private"
 },
 {
   "Company": "Johnson, Joseph G",
   "Address": "8676 Goodwood Blvd # 204",
   "City": "Baton Rouge",
   "State": "LA",
   "zip": 70806,
   "Title": "",
   "Phone": "(225) 636-2011",
   "Website": "",
   "Location": "Private",
   "Business": "Single Loc"
 },
 {
   "Company": "Lighthouse Counseling",
   "Address": "8676 Goodwood Blvd # 204",
   "City": "Baton Rouge",
   "State": "LA",
   "zip": 70806,
   "Title": "",
   "Phone": "(225) 636-2011",
   "Website": "Lighthouse-Counseling.Com",
   "Location": "Private",
   "Business": "Single Loc"
 },
 {
   "Company": "Heal Your Life Counseling LLC",
   "Address": "8768 Quarters Lake Rd # 12",
   "City": "Baton Rouge",
   "State": "LA",
   "zip": 70809,
   "Title": "",
   "Phone": "Not Available",
   "Website": "",
   "Location": "Single Loc",
   "Business": "Private"
 },
 {
   "Company": "Behavioral Recovery Ctr LLC",
   "Address": "8844 Greenwell Springs Rd",
   "City": "Baton Rouge",
   "State": "LA",
   "zip": 70814,
   "Title": "",
   "Phone": "Not Available",
   "Website": "",
   "Location": "Single Loc",
   "Business": "Private"
 },
 {
   "Company": "Thriveworks Counseling",
   "Address": "8888 Jefferson Hwy #B",
   "City": "Baton Rouge",
   "State": "LA",
   "zip": 70809,
   "Title": "",
   "Phone": "(318) 855-0822",
   "Website": "Thriveworks.Com",
   "Location": "Private",
   "Business": "Single Loc"
 },
 {
   "Company": "Criminal Justice Solutions LLC",
   "Address": "8894 Airline Hwy # H",
   "City": "Baton Rouge",
   "State": "LA",
   "zip": 70815,
   "Title": "",
   "Phone": "(225) 231-9928",
   "Website": "",
   "Location": "Single Loc",
   "Business": "Private"
 },
 {
   "Company": "Peak Performance For Men",
   "Address": "9026 Jefferson Hwy # 400",
   "City": "Baton Rouge",
   "State": "LA",
   "zip": 70809,
   "Title": "",
   "Phone": "(225) 256-1261",
   "Website": "Peakperformanceformen.Com",
   "Location": "Private",
   "Business": "Single Loc"
 },
 {
   "Company": "Anchor Community Svc LLC",
   "Address": "9111 Interline Ave # 7a",
   "City": "Baton Rouge",
   "State": "LA",
   "zip": 70809,
   "Title": "",
   "Phone": "(225) 615-7282",
   "Website": "Anchorcommunityservices.Com",
   "Location": "Single Loc",
   "Business": "Private"
 },
 {
   "Company": "Rooted Counseling-Consultation",
   "Address": "9141 Interline Ave # 7a",
   "City": "Baton Rouge",
   "State": "LA",
   "zip": 70809,
   "Title": "",
   "Phone": "(225) 244-8982",
   "Website": "Rootedcounselingandconsultation.Com",
   "Location": "Private",
   "Business": "Single Loc"
 },
 {
   "Company": "Lark, Catherine R",
   "Address": "9150 Bereford Dr",
   "City": "Baton Rouge",
   "State": "LA",
   "zip": 70809,
   "Title": "",
   "Phone": "(225) 960-7689",
   "Website": "",
   "Location": "Private",
   "Business": "Single Loc"
 },
 {
   "Company": "Omc Faith Based Counseling",
   "Address": "9151 Interline Ave # 9a",
   "City": "Baton Rouge",
   "State": "LA",
   "zip": 70809,
   "Title": "",
   "Phone": "(225) 907-1698",
   "Website": "",
   "Location": "Private",
   "Business": "Single Loc"
 },
 {
   "Company": "On The Move For Christ Faith",
   "Address": "9151 Interline Ave # 9a",
   "City": "Baton Rouge",
   "State": "LA",
   "zip": 70809,
   "Title": "",
   "Phone": "(225) 907-1698",
   "Website": "",
   "Location": "Private",
   "Business": "Single Loc"
 },
 {
   "Company": "Psychiatry Associates-Baton Rg",
   "Address": "9229 Bluebonnet Blvd",
   "City": "Baton Rouge",
   "State": "LA",
   "zip": 70810,
   "Title": "",
   "Phone": "(225) 769-7575",
   "Website": "",
   "Location": "Private",
   "Business": "Single Loc"
 },
 {
   "Company": "Apollo Behavioral Health",
   "Address": "923 Executive Park Ave #12",
   "City": "Baton Rouge",
   "State": "LA",
   "zip": 70806,
   "Title": "",
   "Phone": "(225) 303-0212",
   "Website": "Apollo-Bhh.Com",
   "Location": "Single Loc",
   "Business": "Private"
 },
 {
   "Company": "Progressive Healthcare",
   "Address": "936 Havenwood Dr",
   "City": "Baton Rouge",
   "State": "LA",
   "zip": 70815,
   "Title": "",
   "Phone": "(225) 272-9086",
   "Website": "",
   "Location": "Private",
   "Business": "Single Loc"
 },
 {
   "Company": "Bruce Professional Counseling",
   "Address": "9418 Brookline Ave",
   "City": "Baton Rouge",
   "State": "LA",
   "zip": 70809,
   "Title": "",
   "Phone": "(225) 930-2991",
   "Website": "Bruceprofessionalcounseling.Com",
   "Location": "Single Loc",
   "Business": "Private"
 },
 {
   "Company": "New Decisions LLC",
   "Address": "9420 Lindale Ave # A",
   "City": "Baton Rouge",
   "State": "LA",
   "zip": 70815,
   "Title": "",
   "Phone": "(225) 768-7246",
   "Website": "",
   "Location": "Private",
   "Business": "Single Loc"
 },
 {
   "Company": "Group Professional Counseling",
   "Address": "9487 Brookline Ave",
   "City": "Baton Rouge",
   "State": "LA",
   "zip": 70809,
   "Title": "",
   "Phone": "(225) 930-2991",
   "Website": "",
   "Location": "Single Loc",
   "Business": "Private"
 },
 {
   "Company": "Gifted To Inspire LLC",
   "Address": "9618 Jefferson Hwy",
   "City": "Baton Rouge",
   "State": "LA",
   "zip": 70809,
   "Title": "",
   "Phone": "(225) 939-0916",
   "Website": "Giftedtoinspirellc.Com",
   "Location": "Single Loc",
   "Business": "Private"
 },
 {
   "Company": "Progress Health Care Providers",
   "Address": "9929 Glerma Dr",
   "City": "Baton Rouge",
   "State": "LA",
   "zip": 70810,
   "Title": "",
   "Phone": "(225) 767-7124",
   "Website": "",
   "Location": "Private",
   "Business": "Single Loc"
 },
 {
   "Company": "Lyfe Counseling Consultation",
   "Address": "PO Box 40466",
   "City": "Baton Rouge",
   "State": "LA",
   "zip": 70835,
   "Title": "",
   "Phone": "(225) 936-9383",
   "Website": "",
   "Location": "Private",
   "Business": "Single Loc"
 },
 {
   "Company": "Psychological Service Ctr",
   "Address": "S Stadium Rd",
   "City": "Baton Rouge",
   "State": "LA",
   "zip": 70803,
   "Title": "",
   "Phone": "(225) 578-3993",
   "Website": "",
   "Location": "Private",
   "Business": "Single Loc"
 },
 {
   "Company": "Phone 24 Hour Crisis",
   "Address": "",
   "City": "Baton Rouge",
   "State": "LA",
   "zip": 70806,
   "Title": "",
   "Phone": "(225) 924-3900",
   "Website": "Brcic.Org",
   "Location": "Private",
   "Business": "Single Loc"
 }
]
